{
    "type": "FeatureCollection",
    "features": [
        {
            "type": "Feature",
            "properties": {
                "name": "Ch창teau royal de Chambord",
                "description": "<strong>Ch창teau royal de Chambord</strong>",
                "id": "france.chambord.chateau",
                "icon": "castle"
            },
            "geometry": {
                "type": "Point",
                "coordinates": [
                    1.517229,
                    47.616278
                ]
            }
        },
        {
            "type": "Feature",
            "properties": {
                "name": "Ch창teau royal de Blois",
                "description": "<strong>Ch창teau royal de Blois</strong>",
                "id": "france.blois.chateau",
                "icon": "castle"
            },
            "geometry": {
                "type": "Point",
                "coordinates": [
                    1.330551,
                    47.585558
                ]
            }
        },
        {
            "type": "Feature",
            "properties": {
                "name": "Chateau royale d'Amboise",
                "description": "<strong>Chateau royale d'Amboise</strong>",
                "id": "france.amboise.chateau",
                "icon": "castle"
            },
            "geometry": {
                "type": "Point",
                "coordinates": [
                    0.9848193,
                    47.4135606
                ]
            }
        },
        {
            "type": "Feature",
            "properties": {
                "name": "Donjon de Loches",
                "description": "<strong>Donjon de Loches</strong>",
                "id": "france.loches.donjon",
                "icon": "castle"
            },
            "geometry": {
                "type": "Point",
                "coordinates": [
                    0.9943971,
                    47.1249142
                ]
            }
        },
        {
            "type": "Feature",
            "properties": {
                "name": "Forteresse royale de Chinon",
                "description": "<strong>Forteresse royale de Chinon</strong>",
                "id": "france.chinon.forteresse",
                "icon": "castle"
            },
            "geometry": {
                "type": "Point",
                "coordinates": [
                    0.2334263,
                    47.1681036
                ]
            }
        }
    ]
}